,City,Country,Lat,Lng,Max Temp,Humidity,Cloudiness,Wind Speed,Current Description
0,Leningradskiy,RU,69.3833,178.4167,-21.28,84,97,8.86,overcast clouds
1,Grand Gaube,MU,-20.0064,57.6608,78.01,85,1,13.78,light rain
2,Maputo,MZ,-25.9653,32.5892,81.0,69,40,9.22,scattered clouds
3,Bethel,US,41.3712,-73.414,36.0,48,1,6.91,clear sky
4,Marienburg,PL,54.0359,19.0266,33.01,100,100,8.84,overcast clouds
5,Yar-Sale,RU,66.8333,70.8333,-17.14,85,31,3.98,scattered clouds
6,Meridian,US,43.6121,-116.3915,39.0,100,1,10.36,clear sky
7,Cape Town,ZA,-33.9258,18.4232,66.2,63,20,23.02,few clouds
8,Kapaa,US,22.0752,-159.319,77.0,83,75,8.05,light rain
9,Atuona,PF,-9.8,-139.0333,77.79,80,100,17.18,overcast clouds
10,Jamestown,US,42.097,-79.2353,36.0,64,1,5.75,clear sky
11,Vaini,TO,-21.2,-175.2,82.4,83,75,10.36,broken clouds
12,Butaritari,KI,3.0707,172.7902,81.7,80,61,16.91,broken clouds
13,Severo-Kurilsk,RU,50.6789,156.125,19.04,91,86,20.74,overcast clouds
14,Port-Gentil,GA,-0.7193,8.7815,80.6,94,20,6.91,few clouds
15,New Norfolk,AU,-42.7826,147.0587,64.0,87,80,3.31,broken clouds
16,Nehe,CN,48.4833,124.8333,-4.67,86,97,3.87,snow
17,Ushuaia,AR,-54.8,-68.3,48.2,76,75,23.02,light rain
18,Port Alfred,ZA,-33.5906,26.891,68.0,81,98,1.01,overcast clouds
19,Punta Arenas,CL,-53.15,-70.9167,46.4,87,90,11.5,light rain
20,Barcelona,ES,41.3888,2.159,44.01,81,75,8.05,broken clouds
21,Rikitea,PF,-23.1203,-134.9692,78.19,77,70,14.36,broken clouds
22,Thompson,CA,55.7435,-97.8558,17.6,93,40,10.36,scattered clouds
23,Taltal,CL,-25.4,-70.4833,68.23,65,50,8.61,scattered clouds
24,Vallenar,CL,-28.5708,-70.7581,84.36,21,0,10.27,clear sky
25,Sao Joao Da Barra,BR,-21.6403,-41.0511,82.4,69,40,20.71,scattered clouds
26,Arman,RU,59.7,150.1667,-2.76,82,100,8.63,overcast clouds
27,Albany,US,42.6001,-73.9662,28.99,59,1,3.62,clear sky
28,Provideniya,RU,64.3833,-173.3,-5.8,65,0,2.24,clear sky
29,Hofn,IS,64.2539,-15.2082,22.59,84,0,15.08,clear sky
30,Hilo,US,19.7297,-155.09,78.8,57,40,6.91,scattered clouds
31,Krasnoselkup,RU,65.7,82.4667,-24.75,83,0,8.57,clear sky
32,La Baule-Escoublac,FR,47.2922,-2.364,35.6,80,20,4.61,few clouds
33,Bredasdorp,ZA,-34.5322,20.0403,66.2,59,100,8.05,overcast clouds
34,Avarua,CK,-21.2078,-159.775,82.4,78,20,11.5,light rain
35,Arlit,NE,18.7369,7.3853,76.98,16,0,6.2,clear sky
36,Zyryanka,RU,65.75,150.85,-32.22,85,98,1.19,overcast clouds
37,Bluff,NZ,-46.6,168.3333,55.0,76,74,11.99,broken clouds
38,Chokurdakh,RU,70.6333,147.9167,-30.73,85,99,8.21,overcast clouds
39,Poum,NC,-20.2333,164.0167,82.11,83,95,8.34,light rain
40,Fortuna,US,40.5982,-124.1573,57.99,93,90,3.0,overcast clouds
41,Mar Del Plata,AR,-38.0023,-57.5575,77.0,65,0,23.02,clear sky
42,Pingliang,CN,35.5392,106.6861,15.58,70,0,10.11,clear sky
43,Vestmannaeyjar,IS,63.4427,-20.2734,28.24,83,0,5.3,clear sky
44,Saint-Pierre,RE,-21.3393,55.4781,78.8,89,40,18.41,scattered clouds
45,Hami,CN,42.8,93.45,14.95,77,99,2.08,overcast clouds
46,Hithadhoo,MV,-0.6,73.0833,80.83,76,100,15.26,overcast clouds
47,Hobart,AU,-42.8794,147.3294,64.0,82,40,16.11,scattered clouds
48,Grindavik,IS,63.8424,-22.4338,17.6,67,0,5.75,clear sky
49,Yellowknife,CA,62.456,-114.3525,1.4,85,90,6.91,overcast clouds
50,Stornoway,GB,58.2093,-6.3865,44.6,93,75,13.8,moderate rain
51,Plavinas,LV,56.6178,25.7255,15.12,97,62,4.18,broken clouds
52,Busselton,AU,-33.65,115.3333,55.99,92,3,11.48,clear sky
53,East London,ZA,-33.0153,27.9116,69.42,84,100,13.98,light rain
54,Georgetown,MY,5.4112,100.3354,77.0,83,20,2.3,few clouds
55,Tasiilaq,GL,65.6145,-37.6368,17.6,49,75,2.3,broken clouds
56,Mizdah,LY,31.4451,12.9801,70.36,23,0,19.08,clear sky
57,Bengkulu,ID,-3.8004,102.2655,76.12,84,99,3.89,overcast clouds
58,Pisco,PE,-13.7,-76.2167,77.0,69,0,20.71,clear sky
59,Norman Wells,CA,65.282,-126.8329,15.8,86,75,2.82,broken clouds
60,Najran,SA,17.4924,44.1277,53.6,35,0,1.54,clear sky
61,Mataura,NZ,-46.1927,168.8643,55.0,76,68,11.99,broken clouds
62,Sinuapa,HN,14.45,-89.1833,78.8,65,20,6.91,few clouds
63,Saint-Philippe,RE,-21.3585,55.7679,78.8,89,40,18.41,light rain
64,Mackay,AU,-21.15,149.2,73.4,94,90,11.5,light rain
65,Olinda,BR,-8.0089,-34.8553,80.6,65,40,6.91,scattered clouds
66,Chuy,UY,-33.6971,-53.4616,78.26,79,11,14.7,few clouds
67,Mayumba,GA,-3.432,10.6554,78.57,87,89,6.49,overcast clouds
68,Kenora,CA,49.8167,-94.4337,21.2,93,90,11.5,overcast clouds
69,Kruisfontein,ZA,-34.0033,24.7314,64.99,83,96,1.99,overcast clouds
70,Natchez,US,31.5604,-91.4032,41.0,60,90,6.91,overcast clouds
71,Ormara,PK,25.2088,64.6357,66.69,27,0,6.69,clear sky
72,Sisimiut,GL,66.9395,-53.6735,25.57,81,100,9.84,overcast clouds
73,Mombetsu,JP,44.3525,143.3525,12.81,90,60,10.58,broken clouds
74,Airai,TL,-8.9266,125.4092,61.86,100,70,0.07,broken clouds
75,Lorengau,PG,-2.0226,147.2712,81.79,69,100,1.81,overcast clouds
76,San Vicente,AR,-26.6167,-54.1333,88.09,48,100,1.52,moderate rain
77,Puerto Ayora,EC,-0.7393,-90.3518,84.2,54,0,18.41,clear sky
78,Kipushi,CD,-11.7667,27.2333,63.93,98,100,3.24,light rain
79,Krasnoarmeysk,RU,51.0239,45.6969,23.61,98,40,11.05,scattered clouds
80,Minsk,BY,53.9,27.5667,24.8,100,90,4.47,overcast clouds
81,Tarakan,ID,3.3,117.6333,79.7,81,88,2.59,overcast clouds
82,Adrar,MR,20.5022,-10.0711,57.72,34,33,13.33,scattered clouds
83,Takoradi,GH,4.8845,-1.7554,79.68,84,1,10.54,clear sky
84,Upernavik,GL,72.7868,-56.1549,10.94,84,19,10.25,few clouds
85,Shimoda,JP,34.6667,138.95,28.99,70,30,16.06,scattered clouds
86,Jinchang,CN,38.4953,102.1739,11.17,70,0,11.1,clear sky
87,Hermanus,ZA,-34.4187,19.2345,64.99,73,47,5.01,scattered clouds
88,Namtsy,RU,62.7161,129.6658,-50.8,58,98,2.77,light snow
89,Yerbogachen,RU,61.2767,108.0108,-16.44,88,100,5.35,overcast clouds
90,Kodiak,US,57.79,-152.4072,39.2,81,90,18.41,moderate rain
91,Pimenta Bueno,BR,-11.6725,-61.1936,87.33,66,96,0.65,overcast clouds
92,Vostok,RU,46.4856,135.8833,-12.08,90,100,4.94,overcast clouds
93,Kaeo,NZ,-35.1,173.7833,69.01,73,17,8.99,few clouds
94,Karratha,AU,-20.7377,116.8463,86.11,67,55,5.7,light rain
95,Roma,US,43.2128,-75.4557,27.0,74,90,3.44,overcast clouds
96,Hamilton,US,39.1834,-84.5333,39.0,56,1,3.44,clear sky
97,Ponta Do Sol,PT,32.6667,-17.1,53.01,63,28,4.0,scattered clouds
98,Lukovetskiy,RU,64.2956,41.9211,-4.0,84,40,4.47,scattered clouds
99,Eureka,US,40.8021,-124.1637,55.0,91,99,3.0,overcast clouds
100,Ozuluama,MX,21.6667,-97.85,72.79,77,86,12.03,overcast clouds
101,Skjervoy,NO,70.0311,20.9714,23.0,54,0,17.27,clear sky
102,Lokosovo,RU,61.1333,74.8167,-22.58,87,75,6.24,broken clouds
103,Nemuro,JP,43.3236,145.575,18.27,89,0,20.27,clear sky
104,Chernyshevskiy,RU,63.0128,112.4714,-35.72,84,77,2.53,broken clouds
105,Nuuk,GL,64.1835,-51.7216,32.0,100,75,5.75,light snow
106,Sao Jose Da Coroa Grande,BR,-8.8978,-35.1478,79.23,75,100,9.91,overcast clouds
107,Khandbari,NP,27.3747,87.2039,51.78,54,54,2.66,broken clouds
108,Blacksburg,US,37.2296,-80.4139,44.01,45,1,2.98,clear sky
109,Qaanaaq,GL,77.484,-69.3632,-0.11,74,0,6.02,clear sky
110,Mahebourg,MU,-20.4081,57.7,78.8,94,75,6.91,light rain
111,Muros,ES,42.7762,-9.0603,46.0,62,2,5.99,clear sky
112,Sovetskiy,RU,61.3614,63.5842,-21.62,87,27,7.0,scattered clouds
113,Seoul,KR,37.5683,126.9778,8.6,85,100,3.44,overcast clouds
114,Zhigansk,RU,66.7697,123.3711,-32.67,83,100,5.01,overcast clouds
115,Fuerte Olimpo,PY,-21.0415,-57.8738,98.58,38,55,7.61,light rain
116,Juba,SS,4.8517,31.5825,80.76,25,0,2.24,clear sky
117,Ternate,ID,0.8,127.4,80.83,80,80,3.94,broken clouds
118,Dingle,PH,10.9995,122.6711,73.98,94,100,10.83,light rain
119,Jian,CN,27.1172,114.9793,36.97,73,90,7.0,overcast clouds
120,Nizhniy Bestyakh,RU,61.9594,129.9086,-50.8,58,99,2.19,light snow
121,Guerrero Negro,MX,27.9769,-114.0611,72.27,21,0,1.77,clear sky
122,Bilibino,RU,68.0546,166.4372,-28.39,82,33,1.01,scattered clouds
123,Saskylakh,RU,71.9167,114.0833,-14.24,84,100,15.9,overcast clouds
124,Dukat,RU,62.55,155.55,-26.43,83,83,6.13,broken clouds
125,Salalah,OM,17.0151,54.0924,69.8,24,0,11.5,clear sky
126,Sao Joao Dos Patos,BR,-6.495,-43.7022,73.83,95,100,2.15,moderate rain
127,Batagay-Alyta,RU,67.8006,130.4114,-28.68,82,92,1.81,overcast clouds
128,Kitami,JP,43.8031,143.8908,5.34,87,53,5.77,broken clouds
129,Fairbanks,US,64.8378,-147.7164,15.01,85,75,5.75,broken clouds
130,Antalaha,MG,-14.9003,50.2788,75.15,89,97,4.32,overcast clouds
131,Smithers,CA,54.7804,-127.1743,30.2,86,90,6.91,light snow
132,Kaduqli,SD,11.0167,29.7167,72.23,22,24,8.95,few clouds
133,Katsuura,JP,35.1333,140.3,35.6,55,0,10.36,clear sky
134,Nikolskoye,RU,59.7035,30.7861,6.01,78,94,4.47,overcast clouds
135,Ilulissat,GL,69.2167,-51.1,17.6,62,75,2.3,broken clouds
136,Veraval,IN,20.9,70.3667,71.94,52,89,12.15,overcast clouds
137,Satoraljaujhely,HU,48.4,21.6667,30.0,86,0,5.75,clear sky
138,Scarborough,GB,54.2797,-0.4044,41.0,93,100,4.0,overcast clouds
139,Buriti Dos Lopes,BR,-3.175,-41.8669,86.0,70,20,17.27,few clouds
140,Upata,VE,8.0086,-62.3989,84.99,74,64,8.01,light rain
141,Nelson Bay,AU,-32.7167,152.15,66.0,94,20,3.2,few clouds
142,Sligo,IE,54.2697,-8.4694,44.01,90,96,8.99,overcast clouds
143,Arraial Do Cabo,BR,-22.9661,-42.0278,80.6,78,20,17.27,few clouds
144,Esperance,AU,-33.8667,121.9,57.2,88,40,4.61,scattered clouds
145,Vardo,NO,70.3705,31.1107,19.4,68,75,17.27,light snow
146,Lebu,CL,-37.6167,-73.65,59.65,76,97,8.19,overcast clouds
147,Siderno,IT,38.2779,16.302,63.0,82,75,18.41,light rain
148,Beringovskiy,RU,63.05,179.3167,-20.45,83,1,12.59,clear sky
149,Monywa,MM,22.1167,95.1333,70.05,61,100,1.77,overcast clouds
150,Romitan,UZ,39.9343,64.3814,24.8,86,0,6.93,mist
151,Altamont,US,42.2068,-121.7372,37.99,75,1,3.44,clear sky
152,Cherskiy,RU,68.75,161.3,-33.2,84,98,2.01,overcast clouds
153,Numan,NG,9.4667,12.0333,76.64,18,2,2.35,clear sky
154,Torbay,CA,47.6666,-52.7314,32.0,100,90,21.85,light intensity drizzle
155,Turukhansk,RU,65.8167,87.9833,-23.3,80,0,2.26,clear sky
156,Ipixuna,BR,-1.7625,-48.8043,73.4,94,75,6.91,light rain
157,Pevek,RU,69.7008,170.3133,-27.27,87,100,3.33,overcast clouds
158,Nizhnevartovsk,RU,60.9344,76.5531,-14.8,76,0,8.95,clear sky
159,Iqaluit,CA,63.7506,-68.5145,5.0,78,75,9.22,snow
160,Ust-Barguzin,RU,53.45,108.9833,15.8,89,100,9.98,light snow
161,Borovoy,RU,55.4333,86.0833,8.6,78,90,13.42,light snow
162,Olafsvik,IS,64.8945,-23.7142,25.95,84,8,14.81,clear sky
163,Kargil,IN,34.5667,76.1,-12.08,61,0,1.72,clear sky
164,Wanaka,NZ,-44.7,169.15,58.66,55,0,2.35,clear sky
165,Porto Nacional,BR,-10.7081,-48.4172,87.8,62,40,4.61,light rain
166,Rawson,AR,-43.3002,-65.1023,71.65,26,100,21.25,overcast clouds
167,Batemans Bay,AU,-35.7167,150.1833,64.99,95,64,1.01,broken clouds
168,Tabou,CI,4.423,-7.3528,79.0,84,10,6.69,clear sky
169,Sept-Iles,CA,50.2001,-66.3821,24.8,58,0,5.75,clear sky
170,Kaitangata,NZ,-46.2817,169.8464,57.99,51,39,8.01,scattered clouds
171,Barrow,US,71.2906,-156.7887,5.0,78,90,10.36,haze
172,Hasaki,JP,35.7333,140.8333,24.8,74,20,3.44,few clouds
173,Aklavik,CA,68.2191,-135.0107,-2.2,84,75,4.61,broken clouds
174,Atar,MR,20.5169,-13.0499,57.47,35,0,12.33,clear sky
175,Port Hardy,CA,50.6996,-127.4199,44.6,87,90,18.41,light rain
176,Mira,IT,45.4358,12.1348,36.0,69,0,6.91,clear sky
177,Bubaque,GW,11.2833,-15.8333,79.68,69,0,17.67,clear sky
178,Kavaratti,IN,10.5669,72.642,82.35,74,100,6.44,overcast clouds
179,Poso,ID,-1.3959,120.7524,79.0,78,77,4.0,broken clouds
180,Hermon,US,44.8101,-68.9134,33.8,47,20,10.36,few clouds
181,Dudinka,RU,69.4058,86.1778,-13.95,89,100,9.55,light snow
182,Carnarvon,AU,-24.8667,113.6333,75.2,83,0,17.27,clear sky
183,Manjacaze,MZ,-24.7117,33.8828,72.95,82,36,4.07,scattered clouds
184,Dovolnoye,RU,54.4958,79.6671,8.74,96,100,4.36,light snow
185,Paamiut,GL,61.994,-49.6678,33.3,97,100,8.43,light snow
186,Merauke,ID,-8.4667,140.3333,77.61,90,72,8.32,broken clouds
187,Sao Filipe,CV,14.8961,-24.4956,70.83,72,100,19.8,overcast clouds
188,Faanui,PF,-16.4833,-151.75,81.39,74,10,15.3,light rain
189,Abdanan,IR,32.9926,47.4198,43.7,50,0,3.71,clear sky
190,Ouadda,CF,8.0777,22.4007,69.4,22,55,6.58,broken clouds
191,Margate,GB,51.3813,1.3862,39.0,90,17,1.99,few clouds
192,Biak,ID,-0.9131,122.8766,76.89,81,38,2.55,scattered clouds
193,Trujillo,PE,-8.116,-79.03,72.95,75,70,10.58,broken clouds
194,Dawlatabad,AF,36.4141,64.9053,34.0,70,0,1.28,clear sky
195,Tuktoyaktuk,CA,69.4541,-133.0374,-2.2,84,75,16.11,snow
196,Lavrentiya,RU,65.5833,-171.0,-15.2,83,0,11.97,clear sky
197,San Ignacio,BZ,17.1561,-89.0714,78.8,65,75,4.61,broken clouds
198,Wewak,PG,-3.5534,143.6268,80.1,78,100,3.22,overcast clouds
199,Coihaique,CL,-45.5752,-72.0662,50.0,62,75,4.61,light rain
200,San Patricio,US,28.017,-97.5169,44.6,100,90,25.32,mist
201,Sitka,US,57.0531,-135.33,42.8,81,90,14.97,light rain
202,Eyl,SO,7.9803,49.8164,71.28,69,42,16.24,scattered clouds
203,Conceicao Do Araguaia,BR,-8.2578,-49.2647,79.81,87,97,4.5,moderate rain
204,Deputatskiy,RU,69.3,139.9,-28.26,85,99,4.05,overcast clouds
205,Bereda,ES,43.2686,-7.5406,37.99,81,58,11.01,broken clouds
206,Ulladulla,AU,-35.35,150.4667,64.4,88,0,8.05,clear sky
207,Shingu,JP,33.7333,135.9833,33.76,84,99,6.67,overcast clouds
208,Rebrikha,RU,53.0733,82.3408,14.94,96,100,12.12,light snow
209,Bosaso,SO,11.2842,49.1816,72.86,62,96,5.17,overcast clouds
210,Nanortalik,GL,60.1432,-45.2371,32.43,94,100,4.41,overcast clouds
211,Broome,US,42.2506,-75.833,30.99,69,1,4.61,clear sky
212,Khatanga,RU,71.9667,102.5,-11.69,89,100,19.35,light snow
213,Port Blair,IN,11.6667,92.75,78.75,83,56,8.12,broken clouds
214,Lerwick,GB,60.1545,-1.1494,41.0,65,90,10.36,overcast clouds
215,Chillum,US,38.9637,-76.9908,48.2,29,1,3.44,clear sky
216,Te Anau,NZ,-45.4167,167.7167,54.19,72,38,1.57,scattered clouds
217,Russellville,US,35.2784,-93.1338,35.6,64,75,3.44,broken clouds
218,Kavieng,PG,-2.5744,150.7967,82.15,75,100,4.36,moderate rain
219,Kankon,IN,15.0167,74.0167,77.29,72,0,4.29,clear sky
220,Monrovia,LR,6.3005,-10.7969,77.0,94,75,4.61,broken clouds
221,Ribeira Grande,PT,38.5167,-28.7,60.8,100,75,9.22,mist
222,Bambous Virieux,MU,-20.3428,57.7575,78.8,94,75,6.91,light rain
223,Klaksvik,FO,62.2266,-6.589,30.2,59,75,14.97,broken clouds
224,Sarangani,PH,5.4033,125.4636,83.1,74,82,9.08,broken clouds
225,Saint George,US,37.1041,-113.5841,48.0,36,1,1.23,clear sky
226,Portland,US,45.5234,-122.6762,46.4,76,90,4.61,overcast clouds
227,Prachuap Khiri Khan,TH,12.2167,99.75,64.69,80,17,3.8,few clouds
228,Ancud,CL,-41.8697,-73.8203,60.01,58,75,10.36,light rain
229,Tual,ID,-5.6667,132.75,83.5,72,53,4.07,broken clouds
230,Carolina,PR,18.3808,-65.9574,82.4,74,40,14.97,scattered clouds
231,Sandalfoot Cove,US,26.3392,-80.1876,69.8,49,20,3.44,few clouds
232,Fare,PF,-16.7,-151.0167,80.35,76,88,14.79,light rain
233,Okaihau,NZ,-35.3167,173.7833,69.01,73,3,8.99,clear sky
234,Sangar,RU,63.9242,127.4739,-33.3,83,100,4.68,overcast clouds
235,San Quintin,MX,30.4833,-115.95,66.38,38,0,9.4,clear sky
236,Anadyr,RU,64.75,177.4833,-31.0,68,0,8.95,clear sky
237,Ust-Maya,RU,60.4167,134.5333,-43.96,79,93,0.85,overcast clouds
238,Llano De Piedra,PA,7.6667,-80.5667,81.86,73,76,6.04,moderate rain
239,Mount Gambier,AU,-37.8333,140.7667,73.4,43,99,11.5,overcast clouds
240,La Asuncion,VE,11.0333,-63.8628,79.3,81,87,15.68,overcast clouds
241,Inuvik,CA,68.3499,-133.7218,14.0,85,100,4.61,overcast clouds
242,Caravelas,BR,-17.7125,-39.2481,79.25,79,13,8.86,few clouds
243,Guilin,CN,25.2819,110.2864,41.0,42,90,4.47,overcast clouds
244,Naze,JP,28.3667,129.4833,52.21,75,89,8.48,overcast clouds
245,Camalu,MX,30.85,-116.0667,72.0,17,0,8.01,clear sky
246,Katangli,RU,51.7102,143.2326,-11.81,86,96,10.33,overcast clouds
247,Aksarka,RU,66.5606,67.7975,-19.88,84,0,1.99,clear sky
248,Cidreira,BR,-30.1811,-50.2056,78.3,79,2,18.81,clear sky
249,Tshikapa,CD,-6.4167,20.8,71.64,90,100,0.51,overcast clouds
250,Dikson,RU,73.5069,80.5464,21.38,98,100,21.61,light snow
251,Srednekolymsk,RU,67.45,153.6833,-30.21,84,100,4.65,overcast clouds
252,Port Lincoln,AU,-34.7333,135.8667,79.41,27,99,15.84,overcast clouds
253,Vao,NC,-22.6667,167.4833,78.04,88,100,13.94,moderate rain
254,Tura,IN,25.5198,90.2201,62.92,63,39,2.89,scattered clouds
255,Luba,GQ,3.4568,8.5547,78.8,89,20,6.91,few clouds
256,Pljevlja,ME,43.3333,19.3333,24.8,100,90,2.3,heavy snow
257,Comodoro Rivadavia,AR,-45.8667,-67.5,68.0,15,40,32.21,scattered clouds
258,Lagoa,PT,39.05,-27.9833,60.84,90,26,7.02,scattered clouds
259,Coromandel,BR,-18.4733,-47.2003,75.18,87,82,3.65,moderate rain
260,Dunedin,NZ,-45.8742,170.5036,56.17,60,53,11.95,broken clouds
261,Moranbah,AU,-22.0016,148.0466,68.79,89,100,18.77,overcast clouds
262,Miramar,US,25.9873,-80.2323,70.0,43,1,4.61,clear sky
263,Port Augusta,AU,-32.5,137.7667,71.6,35,34,8.05,scattered clouds
264,Mbanza-Ngungu,CD,-5.25,14.8667,67.78,98,71,3.65,broken clouds
265,Laguna,US,38.421,-121.4238,54.0,93,20,5.19,mist
266,Kuznechikha,RU,57.2161,42.3348,11.48,96,100,6.2,overcast clouds
267,Nkwerre,NG,5.7556,7.1063,77.95,78,0,6.6,clear sky
268,Narsaq,GL,60.9167,-46.05,41.0,38,75,19.57,broken clouds
269,Trinidad,BO,-14.8333,-64.9,93.2,59,20,11.5,light rain
270,Santa Rosa,PH,14.3122,121.1114,75.2,73,20,3.44,few clouds
271,Belaya Gora,RU,68.5333,146.4167,-33.29,84,93,2.95,overcast clouds
272,Bamiantong,CN,44.9333,130.5333,-10.16,86,3,5.12,clear sky
273,Marsa Matruh,EG,31.3525,27.2453,57.2,82,0,8.08,clear sky
274,Abashiri,JP,44.0213,144.2697,11.88,88,65,12.37,broken clouds
275,Souillac,MU,-20.5167,57.5167,78.8,94,75,6.91,light rain
276,New Plymouth,NZ,-39.0667,174.0833,62.01,78,77,9.44,broken clouds
277,Boa Vista,BR,2.8197,-60.6733,75.2,94,75,3.44,broken clouds
278,Goderich,CA,43.7501,-81.7165,32.0,74,100,6.91,overcast clouds
279,Los Llanos De Aridane,ES,28.6585,-17.9182,62.6,67,20,17.27,few clouds
280,Palana,RU,59.1167,159.9667,-1.97,89,100,5.66,overcast clouds
281,Richards Bay,ZA,-28.783,32.0377,73.89,91,99,8.99,light rain
282,Victoria,HK,22.2855,114.1577,55.0,38,100,17.27,overcast clouds
283,Faya,SA,18.3851,42.4509,51.8,46,0,6.91,light rain
284,Lompoc,US,34.6391,-120.4579,66.0,34,1,5.75,clear sky
285,Chhabra,IN,24.6667,76.8333,62.11,52,0,4.54,clear sky
286,Port Elizabeth,ZA,-33.918,25.5701,68.0,73,90,9.22,overcast clouds
287,Makakilo City,US,21.3469,-158.0858,80.6,57,1,8.05,clear sky
288,Ranot,TH,7.7777,100.3213,78.3,82,100,13.51,overcast clouds
289,Nileshwar,IN,12.25,75.1,77.7,81,100,6.08,overcast clouds
290,Iskateley,RU,67.6803,53.1512,-9.22,90,0,4.61,clear sky
291,Tiksi,RU,71.6872,128.8694,-15.12,87,100,12.91,overcast clouds
292,Egvekinot,RU,66.3167,-179.1667,-19.5,85,3,9.86,clear sky
293,Cayenne,GF,4.9333,-52.3333,80.6,89,75,11.5,broken clouds
294,Oktyabrskoye,RU,43.0645,44.7417,33.8,100,96,8.95,overcast clouds
295,Kirakira,SB,-10.4544,161.9205,83.73,75,98,5.1,light rain
296,Sanarate,GT,14.795,-90.1922,73.4,56,20,11.5,few clouds
297,Longyearbyen,SJ,78.2186,15.6401,30.2,69,75,11.5,broken clouds
298,Ust-Kan,RU,50.9276,84.761,10.09,90,100,9.8,light snow
299,Mogadishu,SO,2.0371,45.3438,75.92,73,32,22.3,scattered clouds
300,Traverse City,US,44.7631,-85.6206,33.8,69,90,8.05,overcast clouds
301,Hobyo,SO,5.3505,48.5268,74.64,73,10,21.21,clear sky
302,Grand-Santi,GF,4.25,-54.3833,77.32,90,92,3.94,moderate rain
303,Kismayo,SO,-0.3582,42.5454,77.25,78,0,17.58,clear sky
304,Kribi,CM,2.95,9.9167,80.4,79,2,7.61,clear sky
305,Talnakh,RU,69.4865,88.3972,-15.61,86,100,5.64,overcast clouds
306,Maldonado,UY,-34.6667,-54.9167,84.99,70,20,21.85,few clouds
307,Jalu,LY,29.0331,21.5482,66.58,38,31,9.1,scattered clouds
308,Vadso,NO,70.0744,29.7487,14.0,73,40,21.85,scattered clouds
309,Manakara,MG,-22.1333,48.0167,75.87,85,41,3.27,light rain
310,Tarnogskiy Gorodok,RU,60.4997,43.5761,-4.65,91,57,5.68,broken clouds
311,Gijon,ES,43.5357,-5.6615,46.99,75,100,5.01,overcast clouds
312,Kiama,AU,-34.6833,150.8667,68.0,84,3,1.01,clear sky
313,Prince Rupert,CA,54.3161,-130.3201,46.4,87,90,16.11,moderate rain
314,Nago,JP,26.5881,127.9761,59.0,93,40,5.75,scattered clouds
315,Labuhan,ID,-6.8844,112.2051,77.16,88,100,7.23,light rain
316,Mariental,NA,-24.6333,17.9667,75.78,60,66,13.35,light rain
317,Inyonga,TZ,-6.7167,32.0667,64.67,86,100,3.94,overcast clouds
318,Matai,TZ,-8.3,31.5167,62.6,88,75,1.07,light rain
319,Ormstown,CA,45.1334,-73.9992,21.2,86,37,6.91,scattered clouds
320,Husavik,IS,66.0449,-17.3389,14.0,73,90,9.22,overcast clouds
321,Trairi,BR,-3.2778,-39.2689,79.75,73,39,10.76,scattered clouds
322,Geraldton,AU,-28.7667,114.6,66.2,82,0,12.66,clear sky
323,Sampit,ID,-2.5333,112.95,74.19,97,96,1.86,overcast clouds
324,Dolores,AR,-36.3132,-57.6792,84.27,32,1,15.93,clear sky
325,Victor Harbor,AU,-35.5667,138.6167,84.99,29,100,15.35,overcast clouds
326,Dubbo,AU,-32.25,148.6167,64.4,88,0,6.91,clear sky
327,Tocopilla,CL,-22.092,-70.1979,71.83,59,90,10.51,overcast clouds
328,Vila Velha,BR,-20.3297,-40.2925,82.4,74,0,16.11,clear sky
329,Sumbe,AO,-11.2061,13.8437,75.0,75,100,3.53,overcast clouds
330,Inta,RU,66.0317,60.1659,-11.15,84,0,3.29,clear sky
331,Gopalpur,IN,19.2667,84.9167,71.37,78,8,4.61,clear sky
332,Aripuana,BR,-9.1667,-60.6333,85.17,74,62,1.34,light rain
333,Clyde River,CA,70.4692,-68.5914,5.0,85,75,16.11,snow
334,Pangnirtung,CA,66.1451,-65.7125,10.4,85,90,1.7,light snow
335,San Luis,AR,-33.295,-66.3356,88.3,36,11,5.88,few clouds
336,Nurota,UZ,40.5614,65.6886,26.6,59,0,2.3,clear sky
337,Northam,GB,51.0333,-4.2167,44.01,88,100,3.0,overcast clouds
338,Granby,CA,45.4001,-72.7324,21.2,86,7,3.44,clear sky
339,Holme,DK,56.1138,10.1725,34.0,100,90,4.61,mist
340,Angouleme,FR,45.65,0.15,33.01,86,20,8.05,few clouds
341,Saint Anthony,US,45.0205,-93.218,28.99,74,90,9.22,overcast clouds
342,Constantine,DZ,36.365,6.6147,42.8,87,75,4.61,broken clouds
343,Brae,GB,60.3964,-1.353,41.0,65,90,10.36,overcast clouds
344,Meulaboh,ID,4.1363,96.1285,75.45,89,100,4.38,overcast clouds
345,Dauphin,CA,51.1494,-100.0502,28.33,94,100,12.84,overcast clouds
346,Aykhal,RU,66.0,111.5,-35.14,81,98,5.26,overcast clouds
347,Saldanha,ZA,-33.0117,17.9442,62.6,67,0,13.8,clear sky
348,Namibe,AO,-15.1961,12.1522,71.49,71,13,8.1,few clouds
349,Nyurba,RU,63.2842,118.3319,-33.99,83,100,2.62,overcast clouds
350,Half Moon Bay,US,37.4636,-122.4286,59.0,76,75,6.91,haze
351,Imatra,FI,61.1719,28.7524,10.99,90,100,1.99,overcast clouds
352,Champerico,GT,14.3,-91.9167,89.6,45,20,9.22,few clouds
353,Flinders,AU,-34.5833,150.8552,68.0,89,3,1.01,clear sky
354,Chinhoyi,ZW,-17.3667,30.2,66.85,91,100,2.55,light rain
355,Tabriz,IR,38.08,46.2919,24.8,68,0,11.5,haze
356,Boralday,KZ,43.3578,76.8594,5.0,78,40,2.24,mist
357,Senneterre,CA,48.3835,-77.2328,17.6,93,75,3.44,broken clouds
358,Luancheng,CN,37.8792,114.6517,24.8,36,0,4.47,clear sky
359,Castro,BR,-24.7911,-50.0119,72.64,90,44,5.77,scattered clouds
360,Bayir,TR,37.2687,28.2167,64.4,72,75,9.22,broken clouds
361,Terrace,CA,54.5163,-128.6035,32.0,100,90,4.61,snow
362,Adana,TR,36.985,35.2881,53.6,66,69,4.32,haze
363,Vicuna,CL,-30.0319,-70.7081,82.0,21,0,4.0,clear sky
364,Luderitz,NA,-26.6481,15.1594,70.54,60,18,24.29,few clouds
365,Oussouye,SN,12.485,-16.5469,78.8,57,0,4.61,clear sky
366,Pacific Grove,US,36.6177,-121.9166,63.0,36,1,6.24,clear sky
367,Minna,NG,9.6139,6.5569,84.2,32,0,3.44,clear sky
368,Yumen,CN,40.2833,97.2,14.63,64,0,24.29,clear sky
369,Linqing,CN,36.8456,115.7117,26.91,66,86,11.54,overcast clouds
370,Hearst,CA,49.6835,-83.6665,19.4,93,19,5.75,few clouds
371,Starkville,US,33.4504,-88.8184,43.0,70,1,4.05,clear sky
372,Mugur-Aksy,RU,50.35,90.5,-2.56,82,100,7.2,overcast clouds
373,Acambay,MX,19.9558,-99.8417,62.01,37,0,13.27,clear sky
374,Paracuru,BR,-3.41,-39.0306,81.0,72,65,15.99,broken clouds
375,Rudnogorsk,RU,57.2639,103.7519,-5.19,93,100,1.99,overcast clouds
376,Raudeberg,NO,61.9875,5.1352,30.99,94,100,16.55,light snow
377,Xingcheng,CN,40.6167,120.7167,16.2,83,100,2.95,overcast clouds
378,Lasa,IT,46.6166,10.7002,23.0,57,0,10.36,clear sky
379,Sokoni,TZ,-6.4333,39.55,80.6,78,75,11.5,broken clouds
380,Ketchikan,US,55.3422,-131.6461,44.6,93,90,26.46,moderate rain
381,Pryozerne,UA,45.2698,36.3303,35.69,81,67,4.32,broken clouds
382,San Francisco Menendez,SV,13.8431,-90.0158,86.0,37,0,3.44,clear sky
383,Aleksandrovsk-Sakhalinskiy,RU,50.8975,142.1561,-9.42,88,100,3.4,overcast clouds
384,Anchorage,US,61.2181,-149.9003,33.8,64,40,3.44,scattered clouds
385,East Wenatchee Bench,US,47.4257,-120.2812,37.99,84,78,2.37,broken clouds
386,Tessalit,ML,20.1986,1.0114,71.83,21,34,11.54,scattered clouds
387,Honiara,SB,-9.4333,159.95,83.57,71,99,3.6,overcast clouds
388,Cabedelo,BR,-6.9811,-34.8339,82.4,69,20,10.36,few clouds
389,La Ronge,CA,55.1001,-105.2842,19.4,73,100,2.3,overcast clouds
390,Saint-Leu,RE,-21.15,55.2833,78.8,89,20,16.11,few clouds
391,Mount Isa,AU,-20.7333,139.5,77.0,69,75,8.05,broken clouds
392,Kahului,US,20.8947,-156.47,80.6,57,20,13.8,few clouds
393,Sandwick,GB,60.0,-1.25,41.0,65,90,10.36,light snow
394,Sandnessjoen,NO,66.0217,12.6316,32.0,74,75,11.5,light snow
395,Rio Gallegos,AR,-51.6226,-69.2181,57.2,44,20,26.46,light rain
396,Bhalki,IN,18.0333,77.2167,68.67,46,29,5.53,scattered clouds
397,Atikokan,CA,48.7555,-91.6216,24.8,97,100,6.78,overcast clouds
398,Vicosa,BR,-20.7539,-42.8819,74.68,91,97,5.77,moderate rain
399,Presidencia Roque Saenz Pena,AR,-26.7852,-60.4388,100.99,36,66,4.0,broken clouds
400,Pitimbu,BR,-7.4706,-34.8086,82.4,69,20,10.36,light rain
401,Abay,KZ,49.6311,72.8539,12.2,62,81,15.66,snow
402,Colares,PT,38.7992,-9.4469,46.0,70,0,8.05,clear sky
403,Kununurra,AU,-15.7667,128.7333,82.4,100,88,1.14,overcast clouds
404,Sile,TR,41.1754,29.6133,52.0,93,75,3.44,broken clouds
405,Gat,IL,31.61,34.7642,61.0,68,0,3.04,clear sky
406,Axim,GH,4.8699,-2.2405,79.77,84,0,8.93,clear sky
407,Fayetteville,US,35.0527,-78.8784,54.0,35,1,4.61,clear sky
408,Boende,CD,-0.2167,20.8667,74.89,73,5,1.74,clear sky
409,Ust-Kuyga,RU,70.0167,135.6,-31.32,83,75,8.05,broken clouds
410,Asfi,MA,32.2994,-9.2372,54.72,72,37,12.15,light rain
411,Cairns,AU,-16.9167,145.7667,77.0,94,49,1.14,scattered clouds
412,Marfino,RU,55.7028,37.3822,15.8,92,90,8.95,light snow
413,Port Moresby,PG,-9.4431,147.1797,75.2,100,20,8.05,few clouds
414,Paredon,MX,16.0333,-93.8667,85.51,48,0,9.53,clear sky
415,Harper,LR,4.375,-7.7169,79.21,82,19,5.97,light rain
416,Rosetta,EG,31.4044,30.4164,62.6,94,0,5.75,clear sky
417,Batticaloa,LK,7.7102,81.6924,76.77,91,100,8.14,heavy intensity rain
418,Davidson,US,36.1501,-86.7833,39.2,52,1,4.27,clear sky
419,Eunice,US,30.4944,-92.4176,46.0,57,75,6.91,broken clouds
420,Kifri,IQ,34.6959,44.9661,51.39,44,0,4.41,clear sky
421,Turka,UA,49.1541,23.0297,30.99,79,100,2.33,overcast clouds
422,Sterling,US,39.0062,-77.4286,46.4,36,20,10.36,few clouds
423,Cabadiangan,PH,9.7531,122.4739,76.71,84,5,12.3,moderate rain
424,Zaysan,KZ,47.4667,84.8667,4.93,88,98,2.26,overcast clouds
425,Khandyga,RU,62.6667,135.6,-38.67,81,100,0.74,overcast clouds
426,Ardabil,IR,38.2498,48.2933,32.25,75,0,13.89,clear sky
427,Mulege,MX,26.8833,-111.9833,68.23,30,0,14.29,clear sky
428,High Level,CA,58.5169,-117.136,19.4,93,40,4.61,scattered clouds
429,Coahuayana,MX,18.7333,-103.6833,78.8,53,40,6.76,scattered clouds
430,Dinhata,IN,26.1333,89.4667,64.0,67,1,6.64,clear sky
431,Chadan,RU,51.2833,91.5833,-12.08,83,100,2.37,overcast clouds
432,Hokitika,NZ,-42.7167,170.9667,61.02,77,55,3.94,broken clouds
433,Rosario Do Sul,BR,-30.2583,-54.9142,96.17,32,29,8.84,scattered clouds
434,Mahuva,IN,21.0914,71.7622,72.55,52,22,13.02,few clouds
435,Cap Malheureux,MU,-19.9842,57.6142,78.01,85,0,13.06,light rain
436,Nampula,MZ,-15.1165,39.2666,78.8,73,40,6.91,scattered clouds
437,Cetraro,IT,39.5166,15.9416,55.0,91,100,1.01,light rain
438,Yuanli,TW,24.4397,120.6535,57.0,87,75,5.75,broken clouds
439,Komsomolskiy,UZ,40.4272,71.7189,24.8,68,0,1.12,mist
440,Rocha,UY,-34.4833,-54.3333,80.83,67,24,16.6,few clouds
441,Moron,AR,-34.6534,-58.6198,91.99,41,0,5.99,clear sky
442,Hambantota,LK,6.1241,81.1185,76.32,82,100,5.82,light rain
443,Malanje,AO,-9.5402,16.341,61.68,87,77,3.78,broken clouds
444,Tome,CL,-36.6167,-72.95,59.0,94,90,5.75,light rain
445,Coronado,US,32.6859,-117.1831,73.4,14,20,3.44,few clouds
446,Truth Or Consequences,US,33.1284,-107.2528,43.0,39,1,13.8,clear sky
447,Hinesville,US,31.8469,-81.5959,55.99,44,1,4.61,clear sky
448,Hanzhong,CN,33.0728,107.0303,27.16,74,59,2.37,broken clouds
449,Takestan,IR,36.0696,49.6959,26.6,54,0,4.61,clear sky
450,Kalmunai,LK,7.4167,81.8167,75.69,93,100,8.77,heavy intensity rain
451,Mercedes,AR,-34.6515,-59.4307,95.0,29,12,11.01,few clouds
452,Ust-Nera,RU,64.5667,143.2,-38.67,70,28,2.46,scattered clouds
453,Fort Saint James,CA,54.4333,-124.25,30.07,95,100,6.13,overcast clouds
454,Rafaela,AR,-31.2503,-61.4867,95.0,29,0,8.99,clear sky
455,Plyussa,RU,58.4308,29.3654,7.0,95,100,3.8,overcast clouds
456,Tabuk,PH,17.4189,121.4443,64.63,82,93,3.24,overcast clouds
457,Banjar,ID,-8.19,114.9675,78.8,94,40,2.3,scattered clouds
458,Nalut,LY,30.3333,10.85,66.51,25,0,7.25,clear sky
459,Tommot,RU,58.9564,126.2925,-23.33,84,100,2.42,overcast clouds
460,Ipora,BR,-16.4419,-51.1178,82.09,74,77,2.77,light rain
461,Kijang,KR,35.2442,129.2139,24.8,58,0,2.3,clear sky
462,Muroto,JP,33.2833,134.15,40.35,68,100,10.4,overcast clouds
463,Baza,ES,37.4907,-2.7726,37.99,85,26,4.09,scattered clouds
464,Saint-Joseph,RE,-21.3667,55.6167,78.8,89,20,16.11,light rain
465,Belmonte,BR,-15.8631,-38.8828,82.4,83,75,4.61,broken clouds
466,Tambura,SS,5.6,27.4667,70.39,23,0,2.35,clear sky
467,Muravlenko,RU,63.7898,74.523,-29.27,86,13,8.9,few clouds
468,Ostrovnoy,RU,68.0531,39.5131,5.47,92,20,11.3,few clouds
469,Bambanglipuro,ID,-7.95,110.2833,75.94,89,100,3.2,overcast clouds
470,Isfana,KG,39.8386,69.5306,32.0,47,0,20.13,clear sky
471,Gamba,GA,-2.65,10.0,78.28,86,71,4.79,light rain
472,Virginia Beach,US,36.8529,-75.978,48.2,43,20,6.91,few clouds
473,Acapulco,MX,16.8634,-99.8901,86.0,62,40,9.22,scattered clouds
474,Nouakchott,MR,18.0858,-15.9785,69.8,21,99,16.11,sand
475,Chara,RU,56.9064,118.2631,-16.83,73,100,1.07,overcast clouds
476,Menongue,AO,-14.6585,17.691,64.17,88,100,2.8,overcast clouds
477,Flin Flon,CA,54.7682,-101.865,19.4,73,20,8.05,few clouds
478,Dhidhdhoo,MV,6.8833,73.1,80.91,75,100,6.06,light rain
479,Tuatapere,NZ,-46.1333,167.6833,55.0,76,34,11.99,scattered clouds
480,Stabat,ID,3.761,98.4513,75.2,100,40,2.3,mist
481,Tombouctou,ML,20.0,-3.0,69.1,29,79,13.65,broken clouds
482,Luna,PH,10.9667,123.2333,78.53,85,100,18.5,moderate rain
483,Sobral,BR,-3.6861,-40.3497,85.66,49,69,10.13,broken clouds
484,College,US,64.8569,-147.8028,15.01,85,75,5.75,broken clouds
485,Lalpur,IN,22.2,69.9667,63.86,56,1,10.2,clear sky
486,Rubizhne,UA,49.0123,38.3797,30.18,93,100,9.13,overcast clouds
487,Evensk,RU,61.95,159.2333,1.47,80,88,16.08,overcast clouds
488,That Phanom,TH,16.9364,104.7104,55.6,76,79,9.04,broken clouds
489,Nosy Varika,MG,-20.5833,48.5333,78.1,77,100,1.34,overcast clouds
490,Ambilobe,MG,-13.2,49.05,75.43,90,95,1.12,moderate rain
491,Am Timan,TD,11.0297,20.2827,72.16,20,100,4.07,overcast clouds
492,Chino Valley,US,34.7575,-112.4538,48.99,27,0,1.01,clear sky
493,Alofi,NU,-19.0595,-169.9187,80.6,89,75,10.36,light rain
494,Russell,US,32.3502,-85.1999,46.4,46,1,2.89,clear sky
495,Bilma,NE,18.6853,12.9164,71.08,21,0,6.26,clear sky
496,Katherine,AU,-14.4667,132.2667,78.8,78,2,3.44,clear sky
497,Solnechnyy,RU,50.7214,136.6319,-13.85,84,100,2.06,overcast clouds
498,Nhulunbuy,AU,-12.2333,136.7667,78.8,94,14,8.08,light rain
499,Maniitsoq,GL,65.4167,-52.9,32.13,97,100,18.86,snow
500,Ahuimanu,US,21.4447,-157.8378,78.8,65,75,16.11,light rain
501,Sinnamary,GF,5.3833,-52.95,79.36,81,9,13.51,clear sky
502,Banjarmasin,ID,-3.3244,114.591,75.2,100,90,5.75,moderate rain
503,Beyneu,KZ,45.3167,55.2,29.62,90,100,1.43,overcast clouds
504,Yenagoa,NG,4.9247,6.2642,77.22,90,21,4.92,few clouds
505,Neryungri,RU,56.6709,124.6491,-21.51,84,99,2.51,overcast clouds
506,Farnham,GB,51.2143,-0.7959,36.0,100,90,4.61,overcast clouds
507,Payson,US,40.0444,-111.7321,37.0,64,40,6.91,scattered clouds
508,Susanino,RU,58.1461,41.5872,10.65,96,100,5.57,overcast clouds
509,West Bay,KY,19.3667,-81.4167,80.6,65,20,17.27,few clouds
510,Burgos,ES,42.3394,-3.7079,30.99,86,90,12.66,overcast clouds
511,Houma,US,29.5958,-90.7195,46.0,76,90,13.8,overcast clouds
512,Connersville,US,39.6412,-85.1411,34.0,75,42,4.03,scattered clouds
513,Kalemie,CD,-5.9475,29.1947,69.84,83,96,2.71,overcast clouds
514,Korla,CN,41.7597,86.1469,13.21,84,0,6.71,clear sky
515,Pocone,BR,-16.2567,-56.6228,90.7,47,69,3.31,broken clouds
516,Neiafu,TO,-18.65,-173.9833,82.4,78,20,10.36,few clouds
517,Fukue,JP,32.6881,128.8419,42.84,65,100,10.83,overcast clouds
518,Douala,CM,4.0483,9.7043,78.8,100,40,5.61,scattered clouds
519,Qui Nhon,VN,13.7667,109.2333,71.17,86,73,15.23,light rain
520,Manokwari,ID,-0.8667,134.0833,78.62,76,100,2.68,overcast clouds
521,Abha,SA,18.2164,42.5053,51.8,46,0,6.91,light rain
522,Sabha,LY,27.0377,14.4283,66.56,26,12,12.48,few clouds
523,Mehamn,NO,71.0357,27.8492,14.0,67,0,21.85,clear sky
524,Camacha,PT,33.0833,-16.3333,57.2,44,40,25.32,scattered clouds
525,Falmouth,GB,50.1544,-5.0711,44.6,81,90,8.05,overcast clouds
526,Dakar,SN,14.6937,-17.4441,68.0,77,95,16.11,overcast clouds
527,Tiznit,MA,29.5833,-9.5,46.83,86,55,12.17,light rain
528,Palembang,ID,-2.9167,104.7458,72.75,96,78,3.94,light rain
529,Porbandar,IN,21.6422,69.6093,67.17,51,2,11.81,clear sky
530,Agutaya,PH,11.148,120.9417,79.57,80,93,36.33,overcast clouds
531,Riyadh,SA,24.6877,46.7219,59.0,51,0,5.75,clear sky
532,Qaqortoq,GL,60.7167,-46.0333,41.0,38,75,19.57,broken clouds
533,Inongo,CD,-1.95,18.2667,75.7,80,94,2.53,light rain
534,Barcelos,PT,41.5388,-8.6151,45.0,56,0,5.75,clear sky
535,Okitipupa,NG,6.5047,4.7839,76.68,92,0,3.09,clear sky
536,Bonthe,SL,7.5264,-12.505,78.8,86,0,7.74,clear sky
537,Kodinsk,RU,58.6881,99.1844,-12.14,88,100,1.81,overcast clouds
538,Sabzevar,IR,36.2126,57.6819,32.76,68,0,1.52,clear sky
539,Benalla,AU,-36.55,145.9833,70.0,68,33,10.27,scattered clouds
540,Gravdal,NO,68.1214,13.5031,33.8,75,75,12.66,light snow
541,Manggar,ID,-2.8833,108.2667,78.24,87,100,11.34,light rain
542,Along,IN,28.1667,94.7667,57.92,69,87,1.36,overcast clouds
543,Fallon,US,39.4735,-118.7774,41.0,45,40,2.84,scattered clouds
544,Constitucion,CL,-35.3333,-72.4167,63.54,70,3,11.88,clear sky
545,Vila Franca Do Campo,PT,37.7167,-25.4333,55.4,88,75,9.22,broken clouds
546,Bani,DO,18.2833,-70.3333,84.2,70,75,9.22,broken clouds
547,Vega De Alatorre,MX,20.0333,-96.6333,76.15,65,38,17.94,scattered clouds
548,Carbonia,IT,39.1672,8.5222,51.01,93,20,4.61,few clouds
549,Rosarito,MX,32.3333,-117.0333,73.4,13,20,6.91,few clouds
550,Sibolga,ID,1.7427,98.7792,75.78,82,100,3.67,overcast clouds
551,Valley Station,US,38.1112,-85.8702,34.0,69,90,3.44,overcast clouds
552,Abu Samrah,SY,35.3029,37.1841,49.53,49,0,2.57,clear sky
553,Hualmay,PE,-11.0964,-77.6139,72.81,76,99,11.36,overcast clouds
554,Mollendo,PE,-17.0231,-72.0147,72.39,67,64,8.23,broken clouds
555,Gobabis,NA,-22.45,18.9667,69.84,77,100,7.87,light rain
556,Noumea,NC,-22.2763,166.4572,82.0,83,0,3.44,moderate rain
557,Manzanillo,CU,20.3433,-77.1167,78.69,70,32,14.54,scattered clouds
558,Sorland,NO,67.667,12.6934,33.8,75,75,12.66,light snow
559,Gorin,RU,51.1983,136.6669,-13.56,88,100,1.57,overcast clouds
560,Maloy,NO,61.9353,5.1136,32.0,86,90,12.66,snow
561,Gaeta,IT,41.2183,13.5628,50.0,89,100,4.47,overcast clouds
562,Bertoua,CM,4.5833,13.6833,70.18,31,54,1.45,broken clouds
563,Coracora,PE,-15.0333,-73.7833,56.55,64,94,9.35,heavy intensity rain
564,Agaro,ET,7.85,36.65,62.31,64,72,2.46,broken clouds
565,Kintinku,TZ,-5.8833,35.2333,68.0,88,40,1.95,light rain
566,Port Hedland,AU,-20.3167,118.5667,82.4,89,99,8.75,overcast clouds
567,Bathsheba,BB,13.2167,-59.5167,82.4,61,20,20.71,few clouds
568,Ukiah,US,39.1502,-123.2078,52.0,81,90,2.77,overcast clouds
569,Porto Novo,BJ,6.4965,2.6036,82.4,89,20,8.05,few clouds
570,Nova Odesa,UA,47.3078,31.7851,29.77,93,40,1.59,scattered clouds
571,Codrington,AU,-38.2667,141.9667,73.62,37,98,14.99,overcast clouds
572,Dinguiraye,GN,11.3,-10.7167,77.94,21,0,4.74,clear sky
573,Tarko-Sale,RU,64.9225,77.785,-28.91,85,8,8.37,clear sky
574,Indiaroba,BR,-11.5192,-37.5117,79.25,74,92,8.14,overcast clouds
575,Lufilufi,WS,-13.8745,-171.5986,87.8,70,20,4.61,few clouds
576,Vanavara,RU,60.34,102.2797,-14.08,89,96,2.24,overcast clouds
577,Kozhanka,UA,49.9793,29.7381,30.2,86,40,6.71,scattered clouds
578,Westport,US,41.1415,-73.3579,41.0,42,1,9.22,clear sky
579,Haines Junction,CA,60.7522,-137.5108,12.2,85,97,1.14,overcast clouds
580,Luxor,EG,25.6989,32.6421,64.4,48,0,4.09,clear sky
581,Bahia De Caraquez,EC,-0.6,-80.4167,84.2,70,40,12.66,scattered clouds
582,Cabo San Lucas,MX,22.8909,-109.9124,75.99,49,1,3.44,clear sky
583,Tuim,RU,54.3417,89.9261,3.88,87,92,7.56,overcast clouds
584,Quang Ngai,VN,15.1167,108.8,66.18,92,100,6.08,light rain
585,Bani Walid,LY,31.7566,13.9942,70.61,24,0,16.96,clear sky
586,Palmer,US,42.1584,-72.3287,41.0,36,40,5.75,scattered clouds
587,Pangody,RU,65.85,74.4859,-27.74,86,0,5.03,clear sky
588,Nacozari,MX,25.3366,-108.2574,75.0,47,0,3.0,clear sky
589,Maltahohe,NA,-24.8333,16.9833,71.46,56,43,10.63,scattered clouds
590,Erzin,TR,36.9559,36.2,59.0,63,58,3.31,broken clouds
591,Albolote,ES,37.2309,-3.6551,35.01,100,0,3.98,clear sky
592,Gillette,US,44.2911,-105.5022,36.0,55,1,12.66,clear sky
593,Mbuji-Mayi,CD,-6.15,23.6,71.4,88,100,1.12,light rain
594,Nenjiang,CN,49.1833,125.2167,-7.71,85,100,2.08,snow
595,Erie,US,42.7667,-78.6664,33.01,83,100,5.01,overcast clouds
596,Havre-Saint-Pierre,CA,50.2334,-63.5986,23.0,58,1,8.05,clear sky
597,Sao Felix Do Xingu,BR,-6.6447,-51.995,80.4,80,97,0.63,overcast clouds
598,The Valley,AI,18.217,-63.0578,84.2,74,75,11.5,broken clouds
599,Sterlitamak,RU,53.6246,55.9502,22.69,97,97,12.62,light snow
600,Taganak,PH,6.0833,118.3,77.0,100,40,3.44,scattered clouds
601,Iberia,US,29.9502,-91.7507,48.2,53,90,11.5,overcast clouds
602,Saint-Augustin,CA,51.226,-58.6502,23.49,87,34,15.28,scattered clouds
603,Chapais,CA,49.7834,-74.8492,17.6,93,90,9.22,overcast clouds
604,Oksfjord,NO,70.2396,22.3479,26.6,59,0,11.5,clear sky
605,Kieta,PG,-6.2167,155.6333,82.17,73,99,1.23,overcast clouds
606,Sola,VU,-13.8833,167.55,82.9,75,83,6.69,light rain
607,Chantilly,US,38.8943,-77.4311,46.99,36,20,10.36,few clouds
608,Ayyampettai,IN,10.9014,79.1798,75.2,94,75,6.91,moderate rain
609,Tarskoye,RU,42.967,44.7711,33.8,100,88,8.95,overcast clouds
610,Njombe,TZ,-9.3333,34.7667,58.89,97,100,7.56,light rain
611,Cockburn Town,TC,21.4612,-71.1419,80.6,69,40,8.05,scattered clouds
612,Lincoln,US,40.8,-96.667,35.6,75,90,6.91,overcast clouds
613,Mitzic,GA,0.7821,11.549,71.31,90,4,3.36,clear sky
614,Crotone,IT,39.0851,17.1178,55.4,100,90,9.22,light rain
615,Barinas,VE,8.6226,-70.2075,81.18,73,57,6.82,broken clouds
616,Shamary,RU,57.3434,58.2199,-5.08,88,100,16.82,overcast clouds
617,Noyabrsk,RU,63.1994,75.4507,-29.0,85,52,8.97,broken clouds
618,Kungurtug,RU,50.5994,97.5228,-4.2,83,100,2.68,overcast clouds
619,San Carlos De Bariloche,AR,-41.1456,-71.3082,53.6,50,40,32.21,scattered clouds
620,Vila Do Maio,CV,15.1333,-23.2167,71.6,60,75,21.85,broken clouds
621,Salaverry,PE,-8.2333,-78.9667,69.13,85,77,10.92,broken clouds
622,Wanning,CN,18.8003,110.3967,55.38,78,100,17.98,overcast clouds
623,Oktyabrskiy,RU,54.4815,53.471,9.75,94,100,10.63,overcast clouds
624,Limbang,MY,4.75,115.0,78.8,89,75,1.14,broken clouds
625,Broken Hill,AU,-31.95,141.4333,73.4,35,0,9.22,clear sky
626,Fairmont,US,39.4851,-80.1426,39.99,58,41,1.01,scattered clouds
627,Caluquembe,AO,-13.7833,14.6833,57.87,77,40,6.89,scattered clouds
628,Tigil,RU,57.8,158.6667,2.39,94,79,4.14,broken clouds
629,Takapau,NZ,-40.0333,176.35,66.0,77,0,13.0,clear sky
630,Morehead,US,37.2711,-87.1764,32.0,55,90,3.44,overcast clouds
631,Tevaitoa,PF,-16.7833,-151.5,81.27,74,88,16.13,overcast clouds
632,Port Hueneme,US,34.1478,-119.1951,73.4,32,1,11.5,clear sky
633,Kathu,TH,7.9178,98.3332,77.0,83,20,3.44,light rain
634,Saravena,CO,6.9538,-71.8752,80.76,69,87,1.48,overcast clouds
635,Towada,JP,40.6127,141.2067,23.0,81,37,3.0,scattered clouds
636,Orbetello,IT,42.4408,11.2196,42.8,70,40,12.66,scattered clouds
637,Adre,TD,13.4667,22.2,65.7,25,0,13.49,clear sky
638,Namatanai,PG,-3.6667,152.4333,79.68,81,100,3.6,light rain
639,Marawi,PH,7.9986,124.2928,75.0,94,93,3.0,overcast clouds
640,Dali,CN,25.7,100.1833,41.0,75,56,2.13,broken clouds
641,Rosario,AR,-32.9468,-60.6393,100.99,24,0,14.97,smoke
642,Metro,ID,-5.1131,105.3067,73.11,95,99,5.95,overcast clouds
643,Mahina,PF,-17.5065,-149.489,86.0,62,75,4.61,broken clouds
644,Alice Springs,AU,-23.7,133.8833,77.0,60,6,4.61,clear sky
645,Bukachacha,RU,52.9833,116.9167,-5.78,89,100,0.96,overcast clouds
646,San Policarpo,PH,12.1791,125.5072,79.41,85,97,18.16,overcast clouds
647,Makat,KZ,47.6469,53.3463,30.65,99,100,8.72,light snow
648,Karasburg,NA,-28.0167,18.75,81.63,33,23,4.38,few clouds
649,Lazaro Cardenas,MX,17.9583,-102.2,81.64,57,0,9.78,clear sky
650,Inhambane,MZ,-23.865,35.3833,77.95,84,70,10.87,broken clouds
651,Maracaju,BR,-21.6144,-55.1683,88.92,60,80,6.89,broken clouds
652,Madisonville,US,37.3281,-87.4989,33.01,55,90,4.61,overcast clouds
653,Manaus,BR,-3.1019,-60.025,78.8,78,75,2.3,broken clouds
654,La Romana,DO,18.4273,-68.9728,82.4,69,75,11.16,broken clouds
655,Taoudenni,ML,22.6783,-3.9836,63.39,27,18,9.95,few clouds
656,Nouadhibou,MR,20.931,-17.0347,66.2,59,39,19.57,sand
657,Touba,CI,8.2833,-7.6833,86.07,32,95,3.27,overcast clouds
658,Owerri,NG,5.4833,7.0304,77.0,94,75,4.61,broken clouds
659,Lata,PT,40.1629,-8.3327,45.0,71,2,5.01,clear sky
660,Touros,BR,-5.1989,-35.4608,82.4,69,40,14.97,scattered clouds
661,Letnyaya Stavka,RU,45.4306,43.4472,33.75,96,100,6.44,snow
662,Liepaja,LV,56.5419,21.0367,30.2,100,90,10.36,light snow
663,Kaoma,ZM,-14.7833,24.8,67.5,93,100,3.38,light rain
664,Martapura,ID,-3.4167,114.85,75.2,100,90,5.75,moderate rain
665,Dogondoutchi,NE,13.6393,4.0287,80.28,16,0,9.89,clear sky
666,Chimbote,PE,-9.0853,-78.5783,74.88,71,16,12.33,few clouds
667,Podor,MR,16.6527,-14.9587,72.66,26,96,14.54,overcast clouds
668,Kindia,GN,10.0569,-12.8658,74.26,67,0,4.16,clear sky
669,Ust-Omchug,RU,61.15,149.6333,-22.81,82,100,4.9,overcast clouds
670,Taunggyi,MM,20.7833,97.0333,53.89,90,43,3.2,scattered clouds
671,Mayskiy,RU,47.6931,40.1025,28.4,100,41,4.47,mist
672,Pozega,HR,45.3403,17.6853,30.0,94,100,7.49,light snow
673,Valdez,EC,1.2492,-78.9831,78.35,83,1,13.35,clear sky
674,Terra Santa,BR,-2.1042,-56.4869,88.41,59,56,1.23,broken clouds
675,Muborak,UZ,39.2553,65.1528,34.74,74,0,5.61,clear sky
676,Xining,CN,36.6167,101.7667,0.27,68,0,3.58,clear sky
677,Hay River,CA,60.8156,-115.7999,23.0,74,100,6.91,overcast clouds
678,Corby,GB,52.4964,-0.6894,37.99,92,75,1.99,broken clouds
679,Bhag,PK,29.0415,67.8239,54.79,31,0,2.19,clear sky
680,Zapolyarnyy,RU,69.4154,30.8136,5.0,85,0,13.8,clear sky
681,Khani,GE,41.9563,42.9566,50.0,93,90,3.44,overcast clouds
682,Fomboni,KM,-12.28,43.7425,83.3,72,80,17.4,broken clouds
683,Sabang,ID,5.8933,95.3214,80.02,81,100,12.17,moderate rain
684,Newnan,US,33.3807,-84.7997,48.99,49,1,3.65,clear sky
685,Banyo,CM,6.75,11.8167,67.33,26,53,4.27,broken clouds
686,Iracoubo,GF,5.4802,-53.2011,79.16,81,3,13.42,clear sky
687,Pafos,CY,34.7667,32.4167,55.4,71,0,8.05,clear sky
688,Fugen,AT,47.35,11.85,17.6,79,75,3.44,broken clouds
689,Lulea,SE,65.5842,22.1547,12.2,92,90,9.22,light snow
690,Edd,ER,13.9297,41.6925,75.74,56,0,20.04,clear sky
691,San Jose,US,37.3394,-121.895,60.01,41,75,5.75,broken clouds
692,Zambezi,ZM,-13.5432,23.1047,69.01,91,100,3.87,moderate rain
693,Sakaiminato,JP,35.55,133.2333,33.8,93,75,5.75,light snow
694,Karasjok,NO,69.4719,25.5112,10.4,67,40,28.77,light snow
695,Nieuwpoort,BE,51.1244,2.7735,35.6,93,90,4.61,mist
696,Baglung,NP,28.2719,83.5898,53.31,37,100,5.35,overcast clouds
697,Kingston,JM,17.997,-76.7936,86.0,66,20,10.36,few clouds
698,Hachinohe,JP,40.5,141.5,23.0,81,0,3.0,clear sky
699,Tucuman,AR,-26.8241,-65.2226,89.6,62,40,8.05,scattered clouds
